[
  {
    "num": "1",
    "expediente": "F-077-2025",
    "nombre": "POZO DE ARIDOS MONRROY",
    "titular": "MONRROY Y COMPAÑIA LIMITADA SOC MONRROY E HIJOS LIMITADA",
    "categoria": "Minería",
    "region": "Región de los Lagos",
    "estado": "En curso",
    "uf_id": "23302",
    "san_id": "4398",
    "lat": -41.497033,
    "lon": -73.010864
  },
  {
    "num": "2",
    "expediente": "D-258-2025",
    "nombre": "Áridos VICAT Osorno",
    "titular": "SERVICIOS DE TRANSPORTES Y ARIDOS VICAT LIMITADA",
    "categoria": "Minería",
    "region": "Región de los Lagos",
    "estado": "En curso",
    "uf_id": "20349",
    "san_id": "4295",
    "lat": -40.609895,
    "lon": -73.076032
  },
  {
    "num": "3",
    "expediente": "D-235-2025",
    "nombre": "Aridos Felix Molina Curacautin",
    "titular": "Félix Molina",
    "categoria": "Minería",
    "region": "Región de la Araucanía",
    "estado": "Programa de Cumplimiento en ejecución",
    "uf_id": "22966",
    "san_id": "4255",
    "lat": -38.522885,
    "lon": -71.833141
  },
  {
    "num": "4",
    "expediente": "D-228-2025",
    "nombre": "ARIDOS PUERTO OCTAY, DALCAHUE",
    "titular": "CONSTRUCTORA PUERTO OCTAY LIMITADA",
    "categoria": "Minería",
    "region": "Región de los Lagos",
    "estado": "En curso",
    "uf_id": "23810",
    "san_id": "4250",
    "lat": -42.318945,
    "lon": -73.700479
  },
  {
    "num": "5",
    "expediente": "D-065-2025",
    "nombre": "Aridos Fe Blanca San Carlos",
    "titular": "INGENIERÍA Y CONSTRUCCIONES FE BLANCA SPA",
    "categoria": "Minería",
    "region": "Región de Ñuble",
    "estado": "Terminado - Sanción",
    "uf_id": "22692",
    "san_id": "4064",
    "lat": -36.517912,
    "lon": -71.92826
  },
  {
    "num": "6",
    "expediente": "D-237-2024",
    "nombre": "EMPRESTITO CABERO",
    "titular": "ARIDOS PUERTO MONTT SPA",
    "categoria": "Minería",
    "region": "Región de los Lagos",
    "estado": "Programa de Cumplimiento en ejecución",
    "uf_id": "6451",
    "san_id": "3873",
    "lat": -41.580488,
    "lon": -73.247524
  },
  {
    "num": "7",
    "expediente": "D-226-2024",
    "nombre": "Aridos ENCON",
    "titular": "Daniel Urtubia",
    "categoria": "Otras categorías",
    "region": "Región de Valparaíso",
    "estado": "Programa de Cumplimiento en ejecución",
    "uf_id": "21360",
    "san_id": "3833",
    "lat": -32.731192,
    "lon": -70.742828
  },
  {
    "num": "8",
    "expediente": "D-181-2024",
    "nombre": "EXTRACCION DE ARIDOS POZO GALLEGOS",
    "titular": "SOCIEDAD CONCESIONARIA RUTA NAHUELBUTA S.A.",
    "categoria": "Minería",
    "region": "Región del Biobío",
    "estado": "Programa de Cumplimiento en ejecución",
    "uf_id": "22223",
    "san_id": "3790",
    "lat": -37.5814453489897,
    "lon": -72.5522113535756
  },
  {
    "num": "9",
    "expediente": "D-050-2024",
    "nombre": "ÁRIDOS BOCO",
    "titular": "ARIDOS BOCO LIMITADA",
    "categoria": "Minería",
    "region": "Región de Valparaíso",
    "estado": "En curso",
    "uf_id": "18562",
    "san_id": "3626",
    "lat": -32.890097,
    "lon": -71.270444
  },
  {
    "num": "10",
    "expediente": "D-263-2022",
    "nombre": "ARIDOS POZO COLUMO",
    "titular": "SERVICIOS DE TRANSPORTES Y ARIDOS VICAT LIMITADA INVERSIONES CONSTRUCTORA Y GESTION INMOBILIARIA RIO BUENO SPA",
    "categoria": "Minería",
    "region": "Región de Los Ríos",
    "estado": "Programa de Cumplimiento en ejecución",
    "uf_id": "18804",
    "san_id": "3147",
    "lat": -40.263661,
    "lon": -72.756183
  },
  {
    "num": "11",
    "expediente": "D-247-2022",
    "nombre": "ÁRIDOS VICENTE GALAZ - COLINA",
    "titular": "ARIDOS VICENTE GALAZ SPA",
    "categoria": "Minería",
    "region": "Región Metropolitana",
    "estado": "En curso",
    "uf_id": "17895",
    "san_id": "3114",
    "lat": -33.286667,
    "lon": -70.681111
  },
  {
    "num": "12",
    "expediente": "D-156-2022",
    "nombre": "PROYECTO PLANTA Y EXPLOTACION DE ARIDOS LA VARA-SENDA SUR",
    "titular": "INMOBILIARIA SOCOVESA SUR S A MELON ARIDOS LIMITADA",
    "categoria": "Minería",
    "region": "Región de los Lagos",
    "estado": "Terminado - PDC Satisfactorio",
    "uf_id": "9031",
    "san_id": "2972",
    "lat": -41.429002,
    "lon": -72.872763
  },
  {
    "num": "13",
    "expediente": "D-061-2022",
    "nombre": "CANTERA FUNDO LO ALFARO",
    "titular": "SOCIEDAD EXTRACTORA Y COMERCIALIZADORA DE ARIDOS SANTA FE LIMITADA",
    "categoria": "Minería",
    "region": "Región del Biobío",
    "estado": "Programa de Cumplimiento en ejecución",
    "uf_id": "3728",
    "san_id": "2859",
    "lat": -36.658792,
    "lon": -73.098166
  },
  {
    "num": "14",
    "expediente": "D-009-2022",
    "nombre": "ÁRIDOS VICAT",
    "titular": "SERVICIOS DE TRANSPORTES Y ARIDOS VICAT LIMITADA",
    "categoria": "Minería",
    "region": "Región de Los Ríos",
    "estado": "Terminado - Sanción",
    "uf_id": "17274",
    "san_id": "2784",
    "lat": -40.3387387,
    "lon": -72.953091
  },
  {
    "num": "15",
    "expediente": "D-244-2021",
    "nombre": "PLANTA DE EXTRACCION DE ARIDOS BALTIERRA",
    "titular": "INMOBILIARIA AGRICOLA Y COMERCIAL BALTIERRA",
    "categoria": "Minería",
    "region": "Región Metropolitana",
    "estado": "Programa de Cumplimiento en ejecución",
    "uf_id": "13157",
    "san_id": "2748",
    "lat": -33.5698729868232,
    "lon": -70.6030909729344
  },
  {
    "num": "16",
    "expediente": "D-242-2021",
    "nombre": "ÁRIDOS BOCO",
    "titular": "ARIDOS BOCO LIMITADA",
    "categoria": "Minería",
    "region": "Región de Valparaíso",
    "estado": "En curso",
    "uf_id": "18562",
    "san_id": "2746",
    "lat": -32.890097,
    "lon": -71.270444
  },
  {
    "num": "17",
    "expediente": "D-230-2021",
    "nombre": "EXTRACCION DE ARIDOS POZO MALDONADO",
    "titular": "CONSTRUCTORA LA ESPERANZA LTDA.",
    "categoria": "Minería",
    "region": "Región de los Lagos",
    "estado": "En curso",
    "uf_id": "10901",
    "san_id": "2732",
    "lat": -41.43007,
    "lon": -72.85336
  },
  {
    "num": "18",
    "expediente": "D-222-2021",
    "nombre": "EXTRACCION DE ARIDOS EN SECTOR PUENTE INGENIERO MARAMBIO - MELIPILLA",
    "titular": "BESALCO CONSTRUCCIONES S.A",
    "categoria": "Minería",
    "region": "Región Metropolitana",
    "estado": "Terminado - Sanción",
    "uf_id": "6823",
    "san_id": "2722",
    "lat": -33.711347,
    "lon": -71.203347
  },
  {
    "num": "19",
    "expediente": "D-125-2020",
    "nombre": "ARIDOS GUERRICO",
    "titular": "ARIDOS GUERRICO CHILE LIMITADA",
    "categoria": "Minería",
    "region": "Región del Libertador General Bernardo O'Higgins",
    "estado": "Programa de Cumplimiento en ejecución",
    "uf_id": "10793",
    "san_id": "2299",
    "lat": -34.213143,
    "lon": -70.716328
  },
  {
    "num": "20",
    "expediente": "D-169-2021",
    "nombre": "ARIDOS MAIPU S.A.",
    "titular": "PROYECTOS E INGENIERIA RINCONADA S.A.",
    "categoria": "Minería",
    "region": "Región Metropolitana",
    "estado": "En curso",
    "uf_id": "3483",
    "san_id": "2652",
    "lat": -33.520217,
    "lon": -70.72556
  },
  {
    "num": "21",
    "expediente": "D-141-2021",
    "nombre": "EXTRACCION ARIDOS SOPRAMAT CAUCE DEL RIO DIGUILLIN - SECTOR LOS TILOS",
    "titular": "SOCIEDAD PRODUCTORA DE ARIDOS SERVICIOS Y TRANSPORTE LIMITADA",
    "categoria": "Minería",
    "region": "Región de Ñuble",
    "estado": "Terminado - Sanción",
    "uf_id": "6808",
    "san_id": "2632",
    "lat": -36.882157,
    "lon": -72.198455
  },
  {
    "num": "22",
    "expediente": "F-061-2021",
    "nombre": "ARIDOS PETROMIN (PLANTA LAJA)",
    "titular": "ARIDOS PETROMIN S.A.",
    "categoria": "Minería",
    "region": "Región de los Lagos",
    "estado": "Terminado - PDC Satisfactorio",
    "uf_id": "12079",
    "san_id": "2600",
    "lat": -41.369273,
    "lon": -72.991214
  },
  {
    "num": "23",
    "expediente": "D-036-2021",
    "nombre": "ARIDOS DOWLING & SCHILLING SECTOR CANCURA",
    "titular": "ARIDOS DOWLING & SCHILLING S.A.",
    "categoria": "Minería",
    "region": "Región de los Lagos",
    "estado": "En curso",
    "uf_id": "3473",
    "san_id": "2485",
    "lat": -40.753033,
    "lon": -72.971834
  },
  {
    "num": "24",
    "expediente": "D-106-2020",
    "nombre": "ÁRIDOS PUTUE BAJO",
    "titular": "INMOBILIARIA MEDITERRANEO LIMITADA CONSTRUCTORA DONIMO LIMITADA CONSTRUCTORA Y ARIDOS DONIMO SPA TRANSPORTES RUBEN ALBERTO ROSAS E.I.R.L. SOCIEDAD PRODUCTORA DE ARIDOS SPA",
    "categoria": "Minería",
    "region": "Región de la Araucanía",
    "estado": "Terminado - Sanción",
    "uf_id": "14805",
    "san_id": "2292",
    "lat": -39.2820124,
    "lon": -72.2307798
  },
  {
    "num": "25",
    "expediente": "F-005-2020",
    "nombre": "ÁRIDOS RIO LONTUE",
    "titular": "ARIDOS TENO LIMITADA",
    "categoria": "Minería",
    "region": "Región del Maule",
    "estado": "En curso",
    "uf_id": "3493",
    "san_id": "2129",
    "lat": -35.012392,
    "lon": -71.26661
  },
  {
    "num": "26",
    "expediente": "D-191-2019",
    "nombre": "EXTRACCIÓN DE ÁRIDOS ACONCAGUA - HORMIGONES INDEPENDENCIA",
    "titular": "HORMIGONES BICENTENARIO S.A.",
    "categoria": "Minería",
    "region": "Región de Coquimbo",
    "estado": "Terminado - PDC Satisfactorio",
    "uf_id": "14808",
    "san_id": "2087",
    "lat": -29.919582,
    "lon": -71.169751
  },
  {
    "num": "27",
    "expediente": "D-174-2019",
    "nombre": "EXTRACCION DE ARIDOS LA FRONTERA",
    "titular": "MAQUINARIAS LA FRONTERA SPA",
    "categoria": "Minería",
    "region": "Región de la Araucanía",
    "estado": "Terminado - PDC Satisfactorio",
    "uf_id": "11859",
    "san_id": "2072",
    "lat": -38.7699482958163,
    "lon": -72.6854644617463
  },
  {
    "num": "28",
    "expediente": "D-129-2019",
    "nombre": "EXTRACCION DE ARIDOS RIO CAUTIN-CANTERA LAUTARO",
    "titular": "ARIDOS Y CONSTRUCTORA SAN VICENTE LIMITADA",
    "categoria": "Minería",
    "region": "Región de la Araucanía",
    "estado": "Terminado - Sanción",
    "uf_id": "6837",
    "san_id": "2012",
    "lat": -38.5824240709756,
    "lon": -72.440110091858
  },
  {
    "num": "29",
    "expediente": "D-125-2019",
    "nombre": "EXTRACCION ARIDOS ABRATEC",
    "titular": "ABRATEC S.A.",
    "categoria": "Minería",
    "region": "Región de Ñuble",
    "estado": "Terminado - Sanción",
    "uf_id": "6801",
    "san_id": "2008",
    "lat": -36.8199164474093,
    "lon": -72.4061967379177
  },
  {
    "num": "30",
    "expediente": "D-069-2019",
    "nombre": "POZO ARIDOS EL MANZANO",
    "titular": "SACYR CHILE S.A",
    "categoria": "Minería",
    "region": "Región de Coquimbo",
    "estado": "Programa de Cumplimiento en ejecución",
    "uf_id": "11707",
    "san_id": "1977",
    "lat": -30.15374735,
    "lon": -71.20505377
  },
  {
    "num": "31",
    "expediente": "D-161-2022",
    "nombre": "MINERA LOS ESTEROS DE MARGA MARGA S.A. (RECUPERACION DE POZO DE EXTRACCION DE ARIDOS EN ABANDONO) - SAN BERNARDO",
    "titular": "INDUSTRIAL Y MINERA LOS ESTEROS LIMITADA",
    "categoria": "Minería",
    "region": "Región Metropolitana",
    "estado": "En curso",
    "uf_id": "101",
    "san_id": "2977",
    "lat": -33.630362,
    "lon": -70.664737
  },
  {
    "num": "32",
    "expediente": "D-065-2019",
    "nombre": "MINERA LOS ESTEROS DE MARGA MARGA S.A. (RECUPERACION DE POZO DE EXTRACCION DE ARIDOS EN ABANDONO) - SAN BERNARDO",
    "titular": "INDUSTRIAL Y MINERA LOS ESTEROS DE MARGA MARGA S A",
    "categoria": "Minería",
    "region": "Región Metropolitana",
    "estado": "En curso",
    "uf_id": "101",
    "san_id": "1920",
    "lat": -33.630362,
    "lon": -70.664737
  },
  {
    "num": "33",
    "expediente": "F-006-2019",
    "nombre": "ARIDOS MAQUEHUE",
    "titular": "SOCIEDAD DE TRANSPORTE Y ARIDOS MAQUEHUE LTDA.",
    "categoria": "Minería",
    "region": "Región de la Araucanía",
    "estado": "Terminado - PDC Satisfactorio",
    "uf_id": "3484",
    "san_id": "1871",
    "lat": -38.763904,
    "lon": -72.658869
  },
  {
    "num": "34",
    "expediente": "D-027-2019",
    "nombre": "ÁRIDOS TULIO HENRÍQUEZ",
    "titular": "TRANSPORTES Y ARIDOS TULIO ENRIQUE GUTIERREZ STRANGE E.I.R.L.",
    "categoria": "Minería",
    "region": "Región de Valparaíso",
    "estado": "En curso",
    "uf_id": "16156",
    "san_id": "1860",
    "lat": -33.2838267621748,
    "lon": -71.6593504824346
  },
  {
    "num": "35",
    "expediente": "F-043-2018",
    "nombre": "EXTRACCION DE ARIDOS TEMPLE - SAN BERNARDO",
    "titular": "ECOLOGICAL SYSTEMS S.A.",
    "categoria": "Minería",
    "region": "Región Metropolitana",
    "estado": "Terminado - PDC Satisfactorio",
    "uf_id": "6840",
    "san_id": "1810",
    "lat": -33.71895149,
    "lon": -70.78578083
  },
  {
    "num": "36",
    "expediente": "D-095-2018",
    "nombre": "EXTRACCION DE ARIDOS MINERA SANTA LAURA - SAN BERNARDO",
    "titular": "MINERA SANTA LAURA LIMITADA",
    "categoria": "Minería",
    "region": "Región Metropolitana",
    "estado": "Terminado - PDC Satisfactorio",
    "uf_id": "6827",
    "san_id": "1801",
    "lat": -33.734692,
    "lon": -70.799572
  },
  {
    "num": "37",
    "expediente": "D-090-2018",
    "nombre": "EXTRACCION DE ARIDOS CONSTRUCTORA AGUA SANTA - BUIN",
    "titular": "EMPRESA CONSTRUCTORA AGUA SANTA SA",
    "categoria": "Minería",
    "region": "Región Metropolitana",
    "estado": "Terminado - PDC Satisfactorio",
    "uf_id": "6821",
    "san_id": "1794",
    "lat": -33.670521,
    "lon": -70.7055565
  },
  {
    "num": "38",
    "expediente": "D-074-2018",
    "nombre": "PLANTA DE ARIDOS EL MAITEN",
    "titular": "CHAVEZ SALAZAR NESTOR FABIAN",
    "categoria": "Minería",
    "region": "Región de Ñuble",
    "estado": "Terminado - Sanción",
    "uf_id": "14057",
    "san_id": "1765",
    "lat": -36.822077,
    "lon": -72.41313
  },
  {
    "num": "39",
    "expediente": "D-071-2018",
    "nombre": "ÁRIDOS SANTA ÁNGELA",
    "titular": "SOC GANADERA Y EXTRACTORA DE ARIDOS SANTA ANGELA LIMITADA",
    "categoria": "Minería",
    "region": "Región de Valparaíso",
    "estado": "Terminado - PDC Satisfactorio",
    "uf_id": "14882",
    "san_id": "1757",
    "lat": -32.9337434,
    "lon": -71.5302249
  },
  {
    "num": "40",
    "expediente": "D-036-2018",
    "nombre": "PLANTA DE ARIDOS SAN PEDRO",
    "titular": "ARIDOS SAN PEDRO SPA",
    "categoria": "Minería",
    "region": "Región de Antofagasta",
    "estado": "Terminado - Sanción",
    "uf_id": "13128",
    "san_id": "1714",
    "lat": -22.663986,
    "lon": -68.483328
  },
  {
    "num": "41",
    "expediente": "D-019-2018",
    "nombre": "ARIDOS CACHAPOAL - OLIVAR",
    "titular": "ARIDOS CACHAPOAL LIMITADA",
    "categoria": "Minería",
    "region": "Región del Libertador General Bernardo O'Higgins",
    "estado": "En curso",
    "uf_id": "2237",
    "san_id": "1691",
    "lat": -34.191842,
    "lon": -70.774467
  },
  {
    "num": "42",
    "expediente": "F-013-2017",
    "nombre": "EXTRACCION DE ARIDOS POZO MARQUEZ",
    "titular": "CONSTRUCTORA LA ESPERANZA LTDA.",
    "categoria": "Minería",
    "region": "Región de los Lagos",
    "estado": "Programa de Cumplimiento en ejecución",
    "uf_id": "10902",
    "san_id": "1524",
    "lat": -41.43657,
    "lon": -72.88637
  },
  {
    "num": "43",
    "expediente": "F-052-2015",
    "nombre": "EXTRACCION DE ARIDOS KM 45-65 SECTOR PUENTE MAIPO (HORMIGONES TRANSEX) - SAN BERNARDO",
    "titular": "HORMIGONES TRANSEX LIMITADA",
    "categoria": "Minería",
    "region": "Región Metropolitana",
    "estado": "Terminado - PDC Satisfactorio",
    "uf_id": "6826",
    "san_id": "1315",
    "lat": -33.7143,
    "lon": -70.7726
  },
  {
    "num": "44",
    "expediente": "F-025-2015",
    "nombre": "PROCESAMIENTO DE ARIDOS MINERA ROSARIO - SAN BERNARDO",
    "titular": "SOCIEDAD MINERA ROSARIO LIMITADA",
    "categoria": "Minería",
    "region": "Región Metropolitana",
    "estado": "Terminado - PDC Satisfactorio",
    "uf_id": "2814",
    "san_id": "1273",
    "lat": -33.7072,
    "lon": -70.7736
  },
  {
    "num": "45",
    "expediente": "F-056-2014",
    "nombre": "EXTRACCION DE ARIDOS FUNDO LANDA",
    "titular": "ARIDOS MADESAL SPA",
    "categoria": "Minería",
    "region": "Región del Biobío",
    "estado": "Terminado - PDC Satisfactorio",
    "uf_id": "11162",
    "san_id": "1147",
    "lat": -36.7613,
    "lon": -73.0032
  },
  {
    "num": "46",
    "expediente": "F-055-2014",
    "nombre": "ARIDOS RUTA T-35",
    "titular": "OBRASCON HUARTE LAIN S.A. (OHL S.A.)",
    "categoria": "Minería",
    "region": "Región de Los Ríos",
    "estado": "Terminado - Absolución",
    "uf_id": "3494",
    "san_id": "1144",
    "lat": -39.7922,
    "lon": -73.0068
  }
]